[
  {
    "Id": 1,
    "Name": "Northgate",
    "Image": "https://www.gglo.com/wp-content/uploads/2020/06/2018007_01_N64_cropped_2000x1100.jpg",
    "City": "Seattle",
    "State": "WA",
    "ShortDesc": "Home of the first covered mall in the United States",
    "Comments": [],
    "Address": "401 NE Northgate Way, Seattle, WA 98125",
    "Latitude": 47.706127,
    "Longitude": -122.32806,
    "WalkScore": -1,
    "WalkScoreDescription": "Default",
    "BikeScore": -1,
    "BikeScoreDescription": "Default"
  },
  {
    "Id": 2,
    "Name": "Greenlake",
    "Image": "https://api.trekaroo.com/system/photos/43112/original/20061120_GreenlakeAerial.jpg?1493789973",
    "City": "Seattle",
    "State": "WA",
    "ShortDesc": "Seattle\u0027s most beloved park!",
    "Comments": [],
    "Address": "7201 East Green Lake Dr N, Seattle, WA 98115",
    "Latitude": 47.677803,
    "Longitude": -122.34228,
    "WalkScore": -1,
    "WalkScoreDescription": "Default",
    "BikeScore": -1,
    "BikeScoreDescription": "Default"
  },
  {
    "Id": 3,
    "Name": "University District",
    "Image": "https://i0.wp.com/news.theregistryps.com/wp-content/uploads/2018/10/DRProposal3032065AgendaID7009.jpg?fit=1200%2C673",
    "City": "Seattle",
    "State": "WA",
    "ShortDesc": "Famous for eclectic mix of urban shopping areas; historic homes and architecture; and great cafes, pubs, restaurants, and theaters",
    "Comments": [],
    "Address": "4301 University Way NE, Seattle, WA 98105",
    "Latitude": 47.66011,
    "Longitude": -122.31462,
    "WalkScore": -1,
    "WalkScoreDescription": "Default",
    "BikeScore": -1,
    "BikeScoreDescription": "Default"
  },
  {
    "Id": 4,
    "Name": "Ballard",
    "Image": "https://www.traveloffpath.com/wp-content/uploads/2021/10/Ballard-Seattle.jpg",
    "City": "Seattle",
    "State": "WA",
    "ShortDesc": "Walkable, historic, and full of fun things to do, Ballard is a hot spot for young and old",
    "Comments": [],
    "Address": "2001 NW Canoe Pl, Seattle, WA 98117",
    "Latitude": 47.67952,
    "Longitude": -122.38214,
    "WalkScore": -1,
    "WalkScoreDescription": "Default",
    "BikeScore": -1,
    "BikeScoreDescription": "Default"
  },
  {
    "Id": 5,
    "Name": "Fremont",
    "Image": "https://blondwayfarer.com/wp-content/uploads/2018/09/cloudy-waterfront-fremont-seattle.jpg",
    "City": "Seattle",
    "State": "WA",
    "ShortDesc": "Delicious food, quirky shops, public art, and stellar views of Seattle\u2019s skyline",
    "Comments": [],
    "Address": "206 N 36th St, Seattle, WA 98103",
    "Latitude": 47.65293,
    "Longitude": -122.35617,
    "WalkScore": -1,
    "WalkScoreDescription": "Default",
    "BikeScore": -1,
    "BikeScoreDescription": "Default"
  },
  {
    "Id": 6,
    "Name": "Wallingford",
    "Image": "https://www.isolahomes.com/sites/default/files/styles/page_header/public/gas-works-park.jpg?itok=a_rNX9iq",
    "City": "Seattle",
    "State": "WA",
    "ShortDesc": "World-renowned Gas Works Park, and views of both the Olympic and Cascade mountains",
    "Comments": [],
    "Address": "4219 Wallingford Ave N, Seattle, WA 98103",
    "Latitude": 47.65869,
    "Longitude": -122.3374,
    "WalkScore": -1,
    "WalkScoreDescription": "Default",
    "BikeScore": -1,
    "BikeScoreDescription": "Default"
  },
  {
    "Id": 7,
    "Name": "Queen Anne",
    "Image": "https://voices.spu.edu/wp-content/uploads/2019/06/voices-queen-anne-kerry-park.jpg",
    "City": "Seattle",
    "State": "WA",
    "ShortDesc": "These hills are abuzz with adventures for the whole family plus spectacular scenery and indie shops",
    "Comments": [],
    "Address": "150 W Blaine St, Seattle, WA 98119",
    "Latitude": 47.634827,
    "Longitude": -122.35899,
    "WalkScore": -1,
    "WalkScoreDescription": "Default",
    "BikeScore": -1,
    "BikeScoreDescription": "Default"
  },
  {
    "Id": 8,
    "Name": "Eastlake",
    "Image": "https://cooperjacobs.com/wp-content/uploads/2020/03/eastlake-real-estate.jpg",
    "City": "Seattle",
    "State": "WA",
    "ShortDesc": "A low-key, funky area of brightly colored homes and small businesses right by the water",
    "Comments": [],
    "Address": "2516 Eastlake Ave E, Seattle, WA 98102",
    "Latitude": 47.642303,
    "Longitude": -122.32577,
    "WalkScore": -1,
    "WalkScoreDescription": "Default",
    "BikeScore": -1,
    "BikeScoreDescription": "Default"
  },
  {
    "Id": 9,
    "Name": "Montlake",
    "Image": "https://washingtonrowing.com/wp-content/uploads/2015/08/windermere-2015-34-2.jpg",
    "City": "Seattle",
    "State": "WA",
    "ShortDesc": "Montlake is a quiet, affluent neighborhood full of parks and well-maintained single-family homes",
    "Comments": [
      "Default"
    ],
    "Address": "2305 24th Ave E, Seattle, WA 98112",
    "Latitude": 47.639694,
    "Longitude": -122.30234,
    "WalkScore": -1,
    "WalkScoreDescription": "Default",
    "BikeScore": -1,
    "BikeScoreDescription": "Default"
  },
  {
    "Id": 10,
    "Name": "South Lake Union",
    "Image": "https://lakeunionbeat.com/wp-content/uploads/2012/11/SouthLakeUnionAerial_big-1.jpg",
    "City": "Seattle",
    "State": "WA",
    "ShortDesc": "The home base for Seattle\u2019s thriving tech scene also holds a m\u00E9lange of attractive sights, sips, and flavors",
    "Comments": [],
    "Address": "404 Terry Ave N, Seattle, WA 98109",
    "Latitude": 47.622192,
    "Longitude": -122.33694,
    "WalkScore": -1,
    "WalkScoreDescription": "Default",
    "BikeScore": -1,
    "BikeScoreDescription": "Default"
  },
  {
    "Id": 11,
    "Name": "Downtown",
    "Image": "https://downtownseattle.org/app/uploads/2019/02/Looking-south-e1550273498717.jpg",
    "City": "Seattle",
    "State": "WA",
    "ShortDesc": "The central business district of Seattle, Washington",
    "Comments": [],
    "Address": "1000 4th Ave, Seattle, WA 98104",
    "Latitude": 47.606712,
    "Longitude": -122.332695,
    "WalkScore": -1,
    "WalkScoreDescription": "Default",
    "BikeScore": -1,
    "BikeScoreDescription": "Default"
  },
  {
    "Id": 12,
    "Name": "Capitol Hill",
    "Image": "https://apartmentlove.com/blogPhotos/1631555753/Capitol_Hill_Seattle_5_Things_to_Do_or_Visit.jpg",
    "City": "Seattle",
    "State": "WA",
    "ShortDesc": "Vibrating with life, Capitol Hill brims with eclectic venues and a community feel",
    "Comments": [],
    "Address": "1635 11th Ave, Seattle, WA 98122",
    "Latitude": 47.615696,
    "Longitude": -122.31829,
    "WalkScore": -1,
    "WalkScoreDescription": "Default",
    "BikeScore": -1,
    "BikeScoreDescription": "Default"
  },
  {
    "Id": 13,
    "Name": "Belltown",
    "Image": "https://a.travel-assets.com/findyours-php/viewfinder/images/res70/170000/170831-Seattle.jpg",
    "City": "Seattle",
    "State": "WA",
    "ShortDesc": "Walkable and cool, Belltown has an artsy, laid-back vibe",
    "Comments": [],
    "Address": "2604 1st Ave, Seattle, WA 98121",
    "Latitude": 47.6155,
    "Longitude": -122.34976,
    "WalkScore": -1,
    "WalkScoreDescription": "Default",
    "BikeScore": -1,
    "BikeScoreDescription": "Default"
  },
  {
    "Id": 14,
    "Name": "Leschi",
    "Image": "https://www.gethappyathome.com/wp-content/uploads/2020/12/Seattle-Leschi-Neighborhood-Header-Image-scaled.jpg",
    "City": "Seattle",
    "State": "WA",
    "ShortDesc": "A mellow neighborhood on coveted real estate overlooking Lake Washington",
    "Comments": [],
    "Address": "398 Lake Washington Blvd S, Seattle, WA 98144",
    "Latitude": 47.59927,
    "Longitude": -122.28873,
    "WalkScore": -1,
    "WalkScoreDescription": "Default",
    "BikeScore": -1,
    "BikeScoreDescription": "Default"
  },
  {
    "Id": 15,
    "Name": "Pioneer Square",
    "Image": "http://www.dvorak.org/blog/wp-content/uploads/2011/03/pioneer-square-l.jpg, https://quirkytravelguy.com/wp-content/uploads/2019/11/things-to-do-pioneer-square.jpg",
    "City": "Seattle",
    "State": "WA",
    "ShortDesc": "The birthplace of Seattle, historic place known for its Renaissance Revival architecture, First Thursday art walks, night life, delicious lunch spots, and quirky boutiques",
    "Comments": [],
    "Address": "506 2nd Ave, Seattle, WA 98104",
    "Latitude": 47.60196,
    "Longitude": -122.33174,
    "WalkScore": -1,
    "WalkScoreDescription": "Default",
    "BikeScore": -1,
    "BikeScoreDescription": "Default"
  },
  {
    "Id": 16,
    "Name": "Chinatown International District",
    "Image": "https://insightpestnorthwest.com/wp-content/uploads/yokohama-2223502_1280-1.jpg",
    "City": "Seattle",
    "State": "WA",
    "ShortDesc": "The cultural hub for Seattle\u2019s Asian American communities",
    "Comments": [
      "Default"
    ],
    "Address": "423 Maynard Ave S, Seattle, WA 98104",
    "Latitude": 47.598934,
    "Longitude": -122.32518,
    "WalkScore": -1,
    "WalkScoreDescription": "Default",
    "BikeScore": -1,
    "BikeScoreDescription": "Default"
  },
  {
    "Id": 17,
    "Name": "West Seattle",
    "Image": "https://kessiworld.com/wp-content/uploads/2020/05/Kessiworld-WestSeattle-LincolnPark.jpeg",
    "City": "Seattle",
    "State": "WA",
    "ShortDesc": "Hop on the water taxi from downtown to this lovely, low-key corner of the city",
    "Comments": [],
    "Address": "4304 SW Dakota St, Seattle, WA 98116",
    "Latitude": 47.566666,
    "Longitude": -122.38699,
    "WalkScore": -1,
    "WalkScoreDescription": "Default",
    "BikeScore": -1,
    "BikeScoreDescription": "Default"
  }
]